,ID,name,long,lat
0,466910,鞍部 (ANBU),121.5297,25.1825
1,466920,臺北 (TAIPEI),121.5297,25.1825
2,466921,臺北(師院) (TAIPEI) (撤銷站),121.5148,25.0376
3,466930,竹子湖 (ZHUZIHU),121.5132,25.0362
4,C0A980,社子 (Shezih),121.5445,25.1620
5,C0A770,科教館 (Science Education Center),121.4696,25.1095
6,C0A9C0,天母 (Tianmu),121.5165,25.0963
7,C0A9F0,內湖 (Neihu),121.5371,25.1174
8,C0AH40,平等 (Pingdeng),121.5371,25.1174
9,C0AH70,松山 (Songshan),121.5770,25.1291
10,C0AI40,石牌 (Shipai),121.5754,25.0794
11,C0AC40,大屯山 (Datunshan),121.5131,25.1155
12,C0AC70,信義 (Xinyi),121.5224,25.1756
13,C0AC80,文山 (Wenshan),121.5645,25.0378
14,C1AC50,關渡 (Guandu),121.5757,25.0023
15,C1AI50,國三N016K (Freeway No. 3 N016K),121.4693,25.1334
16,C1A730,公館 (Gongguan) (撤銷站),121.6196,25.0341
17,C0A9G0,南港 (Nangang) (撤銷站),121.5395,25.0143
18,C0A9E0,士林 (Shihlin) (撤銷站),121.6029,25.0554
19,C0A990,大崙尾山 (Dalunweishan) (撤銷站),121.5030,25.0902
20,C0A9A0,大直 (Dazhi) (撤銷站),121.5735,25.1062
21,C0A9B0,石牌 (Shipai) (撤銷站),121.5428,25.0780
22,466880,板橋 (BANQIAO),121.4420,24.9976
23,466900,淡水 (TAMSUI),121.4420,24.9976
24,C0A520,山佳 (Shanjia),121.4489,25.1648
25,C0A530,坪林 (Pinglin),121.4020,24.9749
26,C0A540,四堵 (Sihdu),121.7097,24.9381
27,C0A550,泰平 (Taiping),121.7457,24.8926
28,C0A560,福山 (Fushan),121.8237,24.9711
29,C0A570,桶後 (Tonghou),121.5028,24.7762
30,C0A640,石碇 (Shihding),121.5979,24.8482
31,C0A650,火燒寮 (Huoshaoliao),121.6629,24.9939
32,C0A660,瑞芳 (Rueifang),121.7428,25.0027
33,C0A931,三和 (Sanhe),121.8011,25.1131
34,C0A940,金山 (Jinshan),121.5952,25.2331
35,C0A950,鼻頭角 (Bitoujiao),121.6439,25.2236
36,C0A970,三貂角 (Sandiaojiao),121.9233,25.1290
37,C0A860,大坪 (Daping),122.0020,25.0076
38,C0A870,五指山 (Wujhihshan),121.6329,25.1659
39,C0A880,福隆 (Fulong),121.6086,25.1321
40,C0A890,雙溪 (Shuangsi),121.9420,25.0178
41,C0A920,富貴角 (Fugueijiao),121.8642,25.0360
42,C0AH00,汐止 (Xizhi),121.5652,25.2637
43,C0AH10,永和 (Yonghe),121.6587,25.0668
44,C0AH30,五分山 (Wufengshan),121.5081,25.0112
45,C0AH50,林口 (Linkou),121.7807,25.0712
46,C0AH80,深坑 (Shenkeng),121.3808,25.0721
47,C0AH90,福山植物園 (Fushan Botanical Garden),121.6283,25.0027
48,C0AI00,五股 (Wugu),121.5813,24.7607
49,C0AI10,屈尺 (Quchi),121.4272,25.0744
50,C0AI20,白沙灣 (Baishawan),121.5447,24.9218
51,C0AI30,三重 (Sanchong),121.5190,25.2831
52,C0AJ10,澳底 (AODI),121.5006,25.0573
53,C0AJ20,野柳 (YEHLIOU),121.9272,25.0571
54,C0AJ30,淡水觀海 (DANSHUEI GUANHAI),121.6900,25.2070
55,C0AJ40,石門 (SHIMEN),121.4086,25.1845
56,C0AJ50,水湳洞 (SHUINANDONG),121.6011,25.2736
57,C0AC60,三峽 (Sanshia),121.8622,25.1236
58,C0ACA0,新莊 (Xinzhuang),121.3697,24.9390
59,C0AD00,三芝 (Sanzhi),121.4467,25.0514
60,C0AD10,八里 (Bali),121.5019,25.2581
61,C0AD30,蘆洲 (Lujhou),121.4039,25.1502
62,C0AD40,土城 (Tucheng),121.4723,25.0865
63,C0AD50,鶯歌 (Yingge),121.4451,24.9732
64,C0AG80,中和 (Zhonghe),121.3462,24.9515
65,C1A630,下盆 (Siapen),121.4917,24.9916
66,C1A750,石碇服務區 (Shiding Service Area),121.5386,24.7710
67,C1A760,坪林交控 (Pinglin Traffic Control Center),121.6462,25.0087
68,C1A9N0,四十份 (Sihshihfen),121.7134,24.9428
69,C1AI60,國一N039K (Freeway No. 1 N039K),121.5932,24.9341
70,C0AG90,中和 (Zhonghe) (撤銷站),121.3838,25.0643
71,C0AD20,深坑 (Shenkeng) (撤銷站),121.4904,24.9926
72,C0AC90,中和 (Zhonghe) (撤銷站),121.6175,25.0013
73,C0A9I0,三重 (Sanchong) (撤銷站),121.5160,24.9901
74,C0A9D0,永和 (Yonghe) (撤銷站),121.4884,25.0640
75,C0A930,三和 (Sanhe) (撤銷站),121.5047,25.0089
76,C0A680,五股 (Wugu) (撤銷站),121.5940,25.2348
77,C0A710,林口 (Linkou) (撤銷站),121.4349,25.0833
78,C0A580,屈尺 (Cyuchih) (撤銷站),121.3782,25.0763
79,C0A590,大尖山 (Dajianshan) (撤銷站),121.5463,24.9224
80,467490,臺中 (TAICHUNG),120.6840,24.1457
81,467770,梧棲 (WUQI) (撤銷站),120.6840,24.1457
82,C0F000,大肚 (Dadu),120.5233,24.2560
83,C0F0A0,雪山圈谷 (Xueshanjuangu),120.5721,24.1529
84,C0F0B0,石岡 (Shigang),121.2363,24.3885
85,C0F0C0,中坑 (Zhongkeng),120.7776,24.2760
86,C0F0D0,審馬陣 (Shenmazhen),120.9033,24.2485
87,C0F0E0,南湖圈谷 (Nanhuquangu),121.4203,24.3816
88,C0F850,東勢 (Dongshi),121.4446,24.3637
89,C0F861,梨山 (Lishan),120.8330,24.2464
90,C0F9A0,中竹林 (Zhongzhulin),121.2436,24.2475
91,C0F9I0,神岡 (Shengang),120.7510,24.1035
92,C0F9K0,大安 (Da-an),120.6583,24.2724
93,C0F9L0,后里 (Houli),120.5880,24.3450
94,C0F9M0,豐原 (Fengyuan),120.7297,24.3104
95,C0F9N0,大里 (Dali),120.7206,24.2543
96,C0F9O0,潭子 (Tanzi),120.7013,24.0924
97,C0F9P0,清水 (Qingshui),120.7039,24.2131
98,C0F9Q0,外埔 (Waipu),120.5622,24.3122
99,C0F9R0,龍井 (Longjing),120.7056,24.3478
100,C0F9S0,烏日 (Wuri),120.5289,24.1845
101,C0F9T0,西屯 (Xitun),120.6241,24.1070
102,C0F9U0,南屯 (Nantun),120.6412,24.1794
103,C0F9V0,新社 (Xinshe),120.6379,24.1370
104,C0F9X0,大雅(中科園區) (Daya),120.8158,24.2001
105,C0F9Y0,桃山 (Taoshan),120.6244,24.2152
106,C0F9Z0,雪山東峰 (Xueshandongfeng),121.3038,24.4327
107,C0FA00,烏石坑 (Shinmei),121.2686,24.3887
108,C0FA10,松柏 (SONGBAI),120.9476,24.2735
109,C0FA20,溫寮 (WUNLIAO),120.6174,24.4291
110,C0FA30,梧棲 (WUQI),120.5831,24.3721
111,C0F930,大甲 (Dajia),120.5233,24.2560
112,C0F970,大坑 (Dakeng),120.6404,24.3476
113,C1F871,上谷關 (Shangguguan),120.7222,24.1731
114,C1F891,稍來 (Shaolai),121.0186,24.2034
115,C1F911,新伯公 (Xinbogong),121.0011,24.2656
116,C1F941,雪嶺 (Xueling),120.8410,24.2213
117,C1F9B1,桐林 (Tonglin),121.0266,24.2805
118,C1F9C1,白冷 (Baileng),120.7351,24.0661
119,C1F9D1,白毛台 (Baimaotai),120.9298,24.1828
120,C1F9E1,龍安 (Long-an),120.8869,24.1583
121,C1F9G1,慶福山 (Cingfushan),120.8319,24.1605
122,C1F9J1,清水林 (Qingshuilin),120.8483,24.1808
123,C1F9W0,德基 (Deji),120.8204,24.0712
124,C1F9F1,伯公龍 (Bogonglong),121.1902,24.2547
125,C1F9G0,慶福山 (Cingfushan) (撤銷站),120.8490,24.2723
126,C1F9H0,烏石坑 (Wushihkeng) (撤銷站),120.8478,24.1810
127,C1F9H1,烏石坑 (Wushikeng) (撤銷站),120.9456,24.2790
128,C1F9I0,神岡 (Shengang) (撤銷站),120.9458,24.2790
129,C1F9J0,清水林 (Cingshueilin) (撤銷站),120.6587,24.2726
130,C1F9F0,伯公龍 (Bogonglong) (撤銷站),120.8203,24.0715
131,C1F9E0,龍安 (Long-an) (撤銷站),120.8492,24.2724
132,C1F9D0,白毛台 (Baimaotai) (撤銷站),120.8320,24.1601
133,C1F9C0,白冷 (Baileng) (撤銷站),120.8870,24.1582
134,C1F970,大坑 (Dakeng) (撤銷站),120.9298,24.1826
135,C1F9A0,中竹林 (Jhongjhulin) (撤銷站),120.7362,24.1715
136,C1F9B0,桐林 (Tonglin) (撤銷站),120.7514,24.1037
137,C1F920,石岡 (Shihgang) (撤銷站),120.7353,24.0662
138,C1F930,大甲 (Dajia) (撤銷站),120.7703,24.2796
139,C1F940,雪嶺 (Xueling) (撤銷站),120.6420,24.3510
140,C1F910,新伯公 (Xinbogong) (撤銷站),121.0267,24.2807
141,C1F890,稍來 (Shaolai) (撤銷站),120.8409,24.2215
142,C1F000,大肚 (Dadu) (撤銷站),121.0012,24.2657
143,C1F850,東勢 (Dongshih) (撤銷站),120.5726,24.1529
144,C1F870,上谷關 (Shangguguan) (撤銷站),120.8334,24.2462
145,C0F990,橫山 (Hengshan) (撤銷站),121.0189,24.2032
146,C0F900,雙崎 (Shuangqi) (撤銷站),120.6073,24.2191
147,C0F920,石岡 (Shigang) (撤銷站),120.9042,24.2885
148,467410,臺南 (TAINAN),120.2047,22.9932
149,467420,永康 (YONGKANG),120.2047,22.9932
150,467780,七股 (QIGU) (撤銷站),120.2367,23.0383
151,C0O810,曾文 (Cengwen),120.0861,23.1470
152,C0O830,北寮 (Beiliao),120.4973,23.2196
153,C0O840,王爺宮 (Wangyegong),120.4950,23.0795
154,C0O860,大內 (Danei),120.4008,23.2220
155,C0O900,善化 (Shanhua),120.3608,23.1188
156,C0O930,玉井 (Yujing),120.2972,23.1128
157,C0O950,安南 (Annan),120.4605,23.1260
158,C0O960,崎頂 (Qiding),120.1448,23.0766
159,C0O970,虎頭埤 (Hutoupi),120.3693,22.9595
160,C0O980,新市 (Xinshi),120.3478,23.0213
161,C0O990,媽廟 (Mamiao),120.2981,23.0616
162,C0X050,東河 (Donghe),120.2935,22.9917
163,C0X060,下營 (Xiaying),120.3856,23.2965
164,C0X080,佳里 (Jiali),120.2562,23.2269
165,C0X100,臺南市北區 (Beiqu Tainan City),120.1450,23.1730
166,C0X110,臺南市南區 (Nanqu Tainan City),120.1942,23.0103
167,C0X120,麻豆 (Madou),120.1883,22.9611
168,C0X130,官田 (Guantian),120.2486,23.1832
169,C0X140,西港 (Xigang),120.3154,23.1932
170,C0X150,安定 (Anding),120.2031,23.1256
171,C0X160,仁德 (Rende),120.2278,23.1026
172,C0X170,關廟 (Guanmiao),120.2576,22.9682
173,C0X180,山上 (Shanshang),120.3277,22.9630
174,C0X190,安平 (Anping),120.3632,23.0757
175,C0X200,左鎮 (Zuozhen),120.1521,22.9931
176,C0X210,白河 (Baihe),120.4085,23.0567
177,C0X220,學甲 (Xuejia),120.4144,23.3474
178,C0X230,鹽水 (Yanshui),120.1821,23.2303
179,C0X240,關子嶺 (Guanziling),120.2476,23.2726
180,C0X250,新營 (Xinying),120.5080,23.3311
181,C0X260,後壁 (Houbi),120.3166,23.3106
182,C0X280,將軍 (Jiangjun),120.3623,23.3663
183,C0X290,北門 (Beimen),120.1357,23.2149
184,C0X300,鹿寮 (Luliao),120.1254,23.2677
185,C0X310,七股 (Qigu),120.4773,23.3860
186,C0X320,柳營 (Liuying),120.0862,23.1472
187,C1N001,沙崙 (Shalun),120.3752,23.2533
188,C1O921,楠西 (Nanxi),120.3094,22.9354
189,C1O940,東山服務區 (Dongshan Service Area),120.4840,23.1835
190,C1O850,環湖 (Huanhu),120.3984,23.2860
191,C1O870,大棟山 (Dadongshan),120.4186,23.1486
192,C1O880,關山 (Guanshan),120.5222,23.3115
193,C1X040,東原 (Dongyuan),120.5940,23.1733
194,C1X050,東河 (Donghe) (撤銷站),120.4638,23.2915
195,C1X060,下營 (Shiaying) (撤銷站),120.3853,23.2968
196,C1X070,北門 (Beimen) (撤銷站),120.2562,23.2269
197,C1X090,七股 (Ciguliao) (撤銷站),120.1248,23.2682
198,C1X010,岸內 (Annei) (撤銷站),120.1460,23.1418
199,C1X030,白河 (Baihe) (撤銷站),120.2605,23.3298
200,C1O920,楠西 (Nanxi) (撤銷站),120.4290,23.3251
201,C1O860,大內 (Danei) (撤銷站),120.4844,23.1832
202,C1O950,和順 (Heshun) (撤銷站),120.3614,23.1201
203,C1O960,崎頂 (Ciding) (撤銷站),120.1447,23.0765
204,C1O970,虎頭埤 (Hutoupi) (撤銷站),120.3689,22.9596
205,C1O980,新市 (Xinshi) (撤銷站),120.3478,23.0213
206,C1O990,媽廟 (Mazumiao) (撤銷站),120.2986,23.0621
207,C1O820,左鎮 (Zuojhen) (撤銷站),120.2933,22.9915
208,C1O830,北寮 (Beiliao) (撤銷站),120.4041,23.0551
209,C1O840,王爺宮 (Wangyegong) (撤銷站),120.4944,23.0796
210,C1N000,沙崙 (Shalun) (撤銷站),120.3992,23.2207
211,C0X270,柳營 (Liuying) (撤銷站),120.3092,22.9357
212,C0X020,關子嶺 (Guanzihling) (撤銷站),120.3735,23.2572
213,C0O910,新營 (Sinying) (撤銷站),120.5115,23.3270
214,467440,高雄 (KAOHSIUNG) (撤銷站),120.3157,22.5659
215,467441,高雄 (Kaohsiung),120.3157,22.5659
216,C0V210,復興 (Fuxing),120.3123,22.7305
217,C0V250,甲仙 (Jiasian),120.8060,23.2224
218,C0V260,月眉 (Yuemei),120.5917,23.0801
219,C0V310,美濃 (Meinong),120.5398,22.9710
220,C0V350,溪埔 (XIPU),120.5191,22.8987
221,C0V360,內門 (Neimen),120.4467,22.7385
222,C0V370,古亭坑 (Gutingkeng),120.4667,22.9754
223,C0V400,阿公店 (Agongdian),120.4019,22.8931
224,C0V530,阿蓮 (Alian),120.3555,22.8041
225,C0V610,梓官 (Ziguan),120.3275,22.8832
226,C0V620,永安 (Yong'an),120.2672,22.7605
227,C0V630,茄萣 (Qieding),120.2368,22.8231
228,C0V640,湖內 (Hunei),120.1826,22.9066
229,C0V650,彌陀 (Mituo),120.2445,22.8871
230,C0V660,岡山 (Gangshan),120.2463,22.7838
231,C0V670,楠梓 (Nanzi),120.2949,22.7970
232,C0V680,仁武 (Renwu),120.2860,22.7197
233,C0V690,鼓山 (Gushan),120.3477,22.7010
234,C0V700,三民 (Sanmin),120.2755,22.6233
235,C0V710,苓雅 (LingYa),120.3112,22.6450
236,C0V720,林園 (Linyuan),120.3306,22.6227
237,C0V730,大寮 (Daliao),120.3945,22.5077
238,C0V740,旗山 (Qishan),120.3957,22.6056
239,C0V750,路竹 (Luzhu),120.4835,22.8886
240,C0V760,橋頭 (Qiaotou),120.2594,22.8549
241,C0V770,大社 (Dashe),120.3057,22.7578
242,C0V790,萬山 (Wanshan),120.3466,22.7303
243,C0V800,六龜 (Liugui),120.6880,22.9059
244,C0V810,左營 (Zuoying),120.6335,22.9978
245,C0V820,小林 (Xiaolin),120.2849,22.6749
246,C0V440,鳳山 (Fengshan),120.6332,23.1484
247,C0V450,鳳森 (Fengsen),120.3561,22.6466
248,C0V490,新興 (Sinsing),120.3925,22.5450
249,C1V160,達卡努瓦 (Dakanuwa),120.2988,22.6274
250,C1V170,排雲 (Paiyun),120.7053,23.2798
251,C1V190,南天池 (Nantianchi),120.9541,23.4636
252,C1V200,梅山 (Meishan),120.9117,23.2740
253,C1V220,小關山 (Xiaoguanshan),120.8235,23.2684
254,C1V231,高中 (Gaozhong),120.8136,23.1542
255,C1V340,大津 (Dajin),120.7167,23.1349
256,C1V390,尖山 (Jianshan),120.6459,22.8883
257,C1V570,吉東 (JiaDong),120.3677,22.8131
258,C1V580,溪南(特生中心) (Xinan),120.5454,22.8542
259,C1V590,新發 (Xinfa),120.7884,23.0849
260,C1V600,藤枝 (Tengzhi),120.6460,23.0570
261,C1V780,多納林道 (Duonalindao),120.7570,23.0719
262,C1V830,國三S383K (Freeway No. 3 S383K),120.7379,22.8880
263,C1V300,御油山 (Yuyoushan),120.4264,22.7819
264,C1V320,吉東 (Jidong) (撤銷站),120.7153,23.0019
265,C1V330,旗山 (Cishan) (撤銷站),120.5571,22.8411
266,C1V400,竹子腳 (Jhuzihjiao) (撤銷站),120.4942,22.8776
267,C1V410,岡山 (Gangshan) (撤銷站),120.3433,22.8129
268,C1V420,鳳雄 (Fongsyong) (撤銷站),120.2976,22.7551
269,C1V430,左營 (Zuoying) (撤銷站),120.3525,22.7507
270,C1V440,鳳山 (Fongshan) (撤銷站),120.2952,22.6771
271,C1V450,鳳森 (Fongsen) (撤銷站),120.3561,22.6466
272,C1V451,鳳森 (Fongsen) (撤銷站),120.3844,22.5379
273,C1V460,楠溪 (Nanxi) (撤銷站),120.3925,22.5451
274,C1V530,阿蓮 (Alian) (撤銷站),120.8926,23.4364
275,C1V350,溪埔 (Sipu) (撤銷站),120.3276,22.8831
276,C1V360,木柵 (Mujha) (撤銷站),120.4467,22.7385
277,C1V380,路竹 (Lujhu) (撤銷站),120.4667,22.9754
278,C1V240,新發 (Sinfa) (撤銷站),120.2922,22.8790
279,C1V260,月眉 (Yuemei) (撤銷站),120.6600,23.0521
280,C1V270,溪南 (Sinan) (撤銷站),120.5397,22.9713
281,C1V290,新集 (Sinji) (撤銷站),120.8064,23.0759
282,C1V230,高中 (Gaozhong) (撤銷站),120.7939,23.0351
283,C1V210,復興 (Fuxing) (撤銷站),120.7167,23.1349
284,C1V180,大寮 (Daliao) (撤銷站),120.8058,23.2224
285,C1P9A0,三爺 (Sanye) (撤銷站),120.4319,22.6100
286,C0V500,旗津 (Cijin) (撤銷站),120.2799,22.8370
287,C0V430,左營 (Zuoying) (撤銷站),120.2859,22.5886
288,466940,基隆 (KEELUNG),121.7404,25.1333
289,466950,彭佳嶼 (PENGJIAYU),121.7404,25.1333
290,C0B010,七堵 (Qidu),122.0797,25.6279
291,C0B020,基隆嶼 (Keelung Islet),121.7171,25.0948
292,C0B040,大武崙 (DAWULUN),121.7171,25.0948
293,C0B050,八斗子 (BADOUZI),121.7069,25.1666
294,467050,新屋 (XINWU),121.0474,25.0067
295,C0C460,復興 (Fuxing),121.0474,25.0067
296,C0C480,桃園 (Taoyuan),121.3522,24.8202
297,C0C490,八德 (Bade),121.3231,24.9924
298,C0C650,平鎮 (Pingjhen),121.2832,24.9287
299,C0C660,楊梅 (Yangmei),121.2146,24.8975
300,C0C670,龍潭 (Longtan),121.1430,24.9123
301,C0C680,龜山 (Guishan),121.2213,24.8700
302,C0C700,中壢 (Zhongli),121.3865,25.0284
303,C0C710,大溪永福 (Yongfu Daxi),121.2563,24.9776
304,C0C720,竹圍 (JHUWEI),121.3249,24.8929
305,C0C730,中大臨海站 (JHONGDA COASTAL),121.2398,25.1126
306,C0C740,觀音工業區 (GUANYIN INDUSTRIAL),121.0085,24.9661
307,C0C590,觀音 (Guanyin),121.1148,25.0647
308,C0C620,蘆竹 (Luzhu),121.1533,25.0270
309,C0C630,大溪 (Dasi),121.2657,25.0842
310,C1C510,水尾 (Shueiwei),121.2655,24.8828
311,C1C620,蘆竹 (Lujhu) (撤銷站),121.0871,24.9400
312,C1C490,八德 (Bade) (撤銷站),121.2707,25.0859
313,C1C500,楊梅 (Yangmei) (撤銷站),121.2915,24.9270
314,C0C640,龜山 (Gueishan) (撤銷站),121.1482,24.9209
315,C0C610,龍潭 (Longtan) (撤銷站),121.3757,25.0303
316,C0C500,楊梅 (Yangmei) (撤銷站),121.2164,24.8567
317,C0C520,中壢 (Zhongli) (撤銷站),121.1482,24.9208
318,C0C540,大園 (Dayuan) (撤銷站),121.1852,24.9675
319,C0C570,新屋 (Sinwu) (撤銷站),121.2259,25.0477
320,C0C450,新屋 (Sinwu) (撤銷站),121.0475,25.0075
321,C0D660,新竹市東區 (Dongqu Hsinshu City),120.9869,24.7986
322,C0D670,海天一線 (HAITIANYISIAN),120.9869,24.7986
323,C0D680,香山濕地 (SIANGSHAN WETLAND),120.9144,24.8319
324,C0D570,香山 (Siangshan) (撤銷站),120.9149,24.7835
325,467571,新竹 (HSINCHU),121.0142,24.8278
326,C0D360,梅花 (Meihua),121.0142,24.8278
327,C0D390,關西 (Guanxi),121.2085,24.6783
328,C0D430,峨眉 (Emei),121.1739,24.7982
329,C0D480,打鐵坑 (Datiekeng),121.0171,24.6905
330,C0D540,橫山 (Hengshan),121.1507,24.8496
331,C0D550,雪霸 (Xueba),121.1169,24.7111
332,C0D560,竹東 (Zhudong),121.1160,24.5269
333,C0D580,寶山 (Baoshan),121.0578,24.7671
334,C0D590,新豐 (Sinfong),121.0251,24.7350
335,C0D650,湖口 (Hukou),120.9772,24.8706
336,C0D690,外湖 (WAIHU),121.0436,24.9047
337,C1D380,新埔 (Sinpu),120.9687,24.9177
338,C1D400,鳥嘴山 (Niaozueishan),121.0383,24.8474
339,C1D410,白蘭 (Bailan),121.2838,24.7190
340,C1D420,太閣南 (Taigenan),121.0799,24.5793
341,C1D630,飛鳳山 (Fei Feng Mountain),121.1605,24.6328
342,C1D640,外坪(五指山) (Waiping(Wuzhihshan)),121.1191,24.7664
343,C1D370,湖口 (Hukou) (撤銷站),121.0909,24.6444
344,C1D430,峨眉 (Emei) (撤銷站),121.0440,24.9093
345,C0D370,湖口 (Hukou) (撤銷站),121.0170,24.6904
346,C0E420,竹南 (Jhunan),120.8888,24.7089
347,C0E430,南庄 (Nanzhuang),120.8888,24.7089
348,C0E520,大湖 (Dahu),121.0002,24.6017
349,C0E540,後龍 (Houlong),120.8708,24.4149
350,C0E550,明德 (Mingde),120.7839,24.6064
351,C0E590,通霄 (Tongxiao),120.8854,24.5834
352,C0E610,馬都安 (Madu-an),120.7046,24.4718
353,C0E730,頭份 (Toufen),120.9301,24.4512
354,C0E740,造橋 (Zaoqiao),120.9122,24.6882
355,C0E750,苗栗 (Miaoli),120.8647,24.6370
356,C0E791,卓蘭 (Zhuolan),120.8647,24.6370
357,C0E810,西湖 (Xihu),120.8244,24.3126
358,C0E820,獅潭 (Shitan),120.7485,24.5629
359,C0E830,苑裡 (YUANLI),120.9200,24.5391
360,C0E850,大河 (Dahe),120.6530,24.4397
361,C0E870,高鐵苗栗 (THSR Miaoli),120.9485,24.6180
362,C0E880,三義 (Sanyi),120.8260,24.6072
363,C0E910,海埔 (HAIPU),120.7498,24.4054
364,C0E920,通霄漁港 (TONGSIAO FISHING),120.7724,24.6487
365,C0E930,龍鳳 (LONGFONG),120.6738,24.4985
366,C0E780,銅鑼 (Tongluo),120.8591,24.7000
367,C1E461,松安 (Song-an),120.7908,24.4896
368,C1E480,鳳美 (Fongmei),120.9860,24.3979
369,C1E511,新開 (Xinkai),121.0347,24.5548
370,C1E451,象鼻 (Xiangbi),120.8270,24.3477
371,C1E601,南勢 (Nanshi),120.9402,24.3686
372,C1E670,南礦 (Nankuang),120.7348,24.5724
373,C1E681,南勢山 (Nanshishan),121.0028,24.5382
374,C1E691,南湖 (Nanhu),120.9238,24.4216
375,C1E701,八卦 (Bagua),120.8375,24.4013
376,C1E711,馬拉邦山 (Malabangshan),120.9276,24.4917
377,C1E721,泰安 (Tai-an),120.9016,24.3673
378,C1E770,公館 (Gongguan),120.9680,24.4890
379,C1E890,國三N149K (Freeway No. 1 N149K),120.8308,24.5269
380,C1E900,國一N128K (Freeway No. 1 - RAIN – N128K),120.6800,24.4634
381,C1E720,泰安 (Tai-an) (撤銷站),120.8441,24.5609
382,C1E710,馬拉邦山 (Malabangshan) (撤銷站),120.9676,24.4887
383,C1E700,八卦 (Bagua) (撤銷站),120.9015,24.3674
384,C1E690,南湖 (Nanhu) (撤銷站),120.9276,24.4918
385,C1E680,南勢山 (Nanshishan) (撤銷站),120.8376,24.4010
386,C1E460,松安 (Song-an) (撤銷站),120.9237,24.4218
387,C1E520,大湖 (Dahu) (撤銷站),120.9859,24.3976
388,C1E540,後龍 (Houlong) (撤銷站),120.8745,24.4171
389,C1E550,明德 (Mingde) (撤銷站),120.7837,24.6062
390,C1E560,和興 (Hesing) (撤銷站),120.8867,24.5846
391,C1E570,公館 (Gongguan) (撤銷站),120.9151,24.5140
392,C1E590,土城 (Tucheng) (撤銷站),120.8290,24.4957
393,C1E600,南勢 (Nanshi) (撤銷站),120.7042,24.4715
394,C1E500,卓蘭 (Jhuolan) (撤銷站),120.7345,24.5726
395,C1E510,新開 (Xinkai) (撤銷站),120.8112,24.3071
396,C1E450,象鼻 (Xiangbi) (撤銷站),120.8270,24.3476
397,C0E790,卓蘭 (Zhuolan) (撤銷站),120.9403,24.3685
398,C0E760,苑裡 (Yuanli) (撤銷站),120.8247,24.3127
399,C0E580,苑里 (Yuanli) (撤銷站),120.6582,24.4485
400,C0E530,三義 (Sanyi) (撤銷站),120.6801,24.4335
401,C0E440,大河 (Dahaes) (撤銷站),120.7659,24.4109
402,467550,玉山 (YUSHAN),120.9595,23.4876
403,467650,日月潭 (SUN MOON LAKE),120.9595,23.4876
404,C0H890,埔里 (Puli),120.9080,23.8813
405,C0H950,中寮 (Zhongliao),120.9524,23.9721
406,C0H960,草屯 (Caotun),120.7664,23.8844
407,C0H990,昆陽 (Kunyang),120.6808,23.9736
408,C0H9A0,神木村 (Shenmu Village),121.2736,24.1213
409,C0H9C0,合歡山 (Hehuan Mountain),120.8436,23.5327
410,C0I010,廬山 (Lushan),121.2725,24.1434
411,C0I080,信義 (Xinyi),121.1818,24.0333
412,C0I090,鳳凰 (Fonghuang),120.8510,23.6896
413,C0I110,竹山 (Zhushan),120.7873,23.7280
414,C0I360,水里 (Shuili),120.6881,23.7612
415,C0I370,魚池 (Yuchi),120.8497,23.8125
416,C0I380,集集 (Jiji),120.9413,23.8957
417,C0I390,仁愛 (Ren'ai),120.8014,23.8282
418,C0I410,名間 (Mingjian),121.1322,24.0221
419,C0I420,國姓 (Guoxing),120.7014,23.8370
420,C0I460,南投 (Nantou),120.8550,24.0378
421,C0I480,梅峰 (Meifeng),120.6873,23.9114
422,C0I490,萬大林道 (Wandalindao),121.1735,24.0852
423,C0I520,玉山風口 (Yushanfengkou),121.0914,23.9282
424,C0I530,小奇萊 (Xiaoqilai),120.9559,23.4704
425,C0I540,奇萊稜線 (Qilailengxian),121.2957,24.1317
426,C1H000,翠峰 (Cuifeng),121.3264,24.1092
427,C1H840,國三N238K (Freeway No. 3 - RAIN –N238K),121.2052,24.1093
428,C1H860,瑞岩 (Ruiyan),120.7077,23.8410
429,C1H900,清流 (Qingliu),121.1834,24.1237
430,C1H920,長豐 (Changfeng),121.1834,24.1237
431,C1H941,雙冬 (Shuangdong),120.8798,24.1020
432,C1H9B1,阿眉 (Amei),120.8021,23.9673
433,C1I020,萬大 (Wanda),120.9946,24.1263
434,C1I030,武界 (Wujie),121.1322,23.9798
435,C1H971,六分寮 (Liufenliao),121.0524,23.9132
436,C1I050,丹大 (Danda),120.6378,23.9250
437,C1I070,和社 (Heshe),121.1411,23.7537
438,C1I101,溪頭 (Xitou),120.8888,23.5911
439,C1I131,桶頭 (Tongtou),120.8076,23.6617
440,C1I140,卡奈托灣 (Kanaituowan),120.6541,23.6419
441,C1I150,青雲 (Qingyun),121.0878,23.7543
442,C1I121,大鞍 (Da-an),120.9493,23.7933
443,C1I201,中心崙 (Zhongxinlun),120.7600,23.6783
444,C1I400,凌霄 (Lingxiao),120.7120,23.7287
445,C1I430,翠華 (Cuihua),121.0044,24.0187
446,C1I440,新高口 (Xingaokou),121.2243,24.1919
447,C1I450,望鄉山 (Wangxiangshan),120.8789,23.4787
448,C1I470,杉林溪 (Shanlinxi),120.9442,23.5941
449,C1I500,大尖山 (Dajianshan),120.7864,23.6395
450,C1I510,線浸林道 (Xianjinlindao),120.9948,23.8585
451,C1I550,國六W023K (Freeway No. 6 W023K),120.8329,23.7615
452,C1I211,蘆竹湳 (Luzhunan),120.8677,23.9790
453,C1I220,樟湖 (Zhanghu),120.8119,23.9340
454,C1I230,九份二山 (Jiufen'ershan),120.8469,23.9053
455,C1I240,外大坪 (Waidaping),120.8450,23.9619
456,C1I250,鯉潭 (Litan),120.9179,23.9586
457,C1I260,北坑 (Beikeng),120.9911,23.9619
458,C1I310,西巒 (Xiluan),121.0069,23.9246
459,C1I320,奧萬大 (Aowanda),120.8839,23.7544
460,C1I330,楓樹林 (Fengshulin),121.1785,23.9529
461,C1I340,新興橋 (Xinxingqiao),121.0761,23.9868
462,C1I280,埔中 (Puzhong),120.8687,23.5633
463,C1I290,豐丘 (Fengqiu),120.6425,23.8207
464,C1I300,上安橋 (Shang-anciao) (撤銷站),120.8874,23.6681
465,C1I350,東埔 (Dongpu) (撤銷站),120.8738,23.7282
466,C1I270,水里 (Shueili) (撤銷站),120.9251,23.5563
467,C1I210,蘆竹湳 (Luzhunan) (撤銷站),120.8540,23.8319
468,C1I130,桶頭 (Tongtou) (撤銷站),120.8120,23.9340
469,C1I160,龍神橋 (Longshenciao) (撤銷站),120.6536,23.6424
470,C1I170,集集 (Jiji) (撤銷站),120.8715,23.7798
471,C1I190,水長流 (Shueichangliou) (撤銷站),120.7750,23.8263
472,C1I200,中心崙 (Zhongxinlun) (撤銷站),120.8604,24.0618
473,C1I120,大鞍 (Da-an) (撤銷站),120.7123,23.7285
474,C1I080,信義 (Xinyi) (撤銷站),120.7598,23.6785
475,C1I100,溪頭 (Xitou) (撤銷站),120.8510,23.6896
476,C1I060,望鄉 (Wangsiang) (撤銷站),120.8072,23.6612
477,C1H9B0,阿眉 (Amei) (撤銷站),120.9281,23.6190
478,C1I040,文文社 (Wunwunshe) (撤銷站),120.9942,24.1260
479,C1H950,中寮 (Chungliao) (撤銷站),120.9934,23.8493
480,C1H960,草屯 (Caotun) (撤銷站),120.7664,23.8843
481,C1H970,六分寮 (Lioufenliao) (撤銷站),120.6628,23.9971
482,C1H930,北山 (Beishan) (撤銷站),120.6381,23.9254
483,C1H940,雙冬 (Shuangdong) (撤銷站),120.8747,23.9853
484,C1H910,魚池 (Yuchih) (撤銷站),120.8023,23.9674
485,C1H870,仁愛 (Ren-ai) (撤銷站),120.9290,23.9008
486,C1H880,凌霄 (Lingsiao) (撤銷站),121.1307,24.0186
487,C1H890,大肚城 (Daducheng) (撤銷站),121.0148,24.0167
488,C1H850,翠巒 (Cueiluan) (撤銷站),120.9522,23.9709
489,467270,田中 (TianZhong),120.5812,23.8738
490,C0G860,社頭 (Shetou),120.5812,23.8738
491,C0G870,芳苑 (Fangyuan),120.5862,23.8976
492,C0G880,二水 (Ershui),120.3200,23.9223
493,C0G890,伸港 (Shenggang),120.6173,23.8107
494,C0G900,線西 (xianxi),120.4844,24.1489
495,C0G910,花壇 (Huatan),120.4435,24.1433
496,C0G920,永靖 (Yongjing),120.5494,24.0320
497,C0G940,竹塘 (Zhutang),120.5475,23.9247
498,C0G620,芬園 (Fenyuan),120.3867,23.8482
499,C0G640,鹿港 (Lukang),120.6213,24.0156
500,C0G650,員林 (Yuanlin),120.6213,24.0753
501,C0G660,溪湖 (Xihu),120.5855,23.9465
502,C0G720,溪州 (Xizhou),120.4791,23.9483
503,C0G730,二林 (Erlin),120.4990,23.8515
504,C0G740,大城 (Dacheng),120.3760,23.9033
505,C0G800,埔鹽 (Puyan),120.3209,23.8524
506,C0G810,埔心 (Puxin),120.4316,24.0003
507,C0G820,田尾 (Tianwei),120.5254,23.9476
508,C0G830,埤頭 (Pitou),120.5093,23.9016
509,C0G840,北斗 (Beidou),120.4528,23.8660
510,C0G770,福興 (Fuxing),120.5142,23.8775
511,C0G780,秀水 (Xiushui),120.4376,24.0412
512,C1G691,下水埔 (Xiashuipu),120.5038,24.0340
513,C1G9D0,國一S218K (Freeway No. 1 - RAIN – S218K),120.5676,23.8161
514,C1G700,中西 (Jhongsi) (撤銷站),120.4932,23.8906
515,C1G620,芬園 (Fenyuan) (撤銷站),120.3521,23.8820
516,C1G630,彰化 (Changhua) (撤銷站),120.6212,24.0154
517,C1G631,彰化 (Changhua) (撤銷站),120.5550,24.0788
518,C1G660,溪湖 (Sihu) (撤銷站),120.5546,24.0791
519,C1G670,溪州 (Sijhou) (撤銷站),120.4789,23.9482
520,C1G680,草湖 (Caohu) (撤銷站),120.4959,23.8482
521,C1G690,下水埔 (Xiashuipu) (撤銷站),120.3784,23.9596
522,C0G790,花壇 (Huatan) (撤銷站),120.5750,23.8176
523,C0G850,田中 (Tianzhong) (撤銷站),120.5523,24.0160
524,C0G750,竹塘 (Zhutang) (撤銷站),120.5882,23.8567
525,C0G760,高鐵彰化 (THSR Changhua) (撤銷站),120.3824,23.8466
526,C0G710,台西 (Taisi) (撤銷站),120.5746,23.8752
527,C0K240,草嶺 (Caoling),120.6934,23.5955
528,C0K250,崙背 (Lunbei),120.6934,23.5955
529,C0K280,四湖 (Sihu),120.3189,23.7555
530,C0K291,宜梧 (Yiwu),120.2271,23.6304
531,C0K530,臺西 (Taixi),120.1693,23.5362
532,C0K550,蔦松 (Niaosong),120.1975,23.7015
533,C0K560,棋山 (Qishan),120.2297,23.5143
534,C0K580,高鐵雲林 (THSR Yunlin),120.6034,23.6864
535,C0K590,"雲林東勢 (Dongshi, Yunlin County)",120.4179,23.7374
536,C0K330,虎尾 (Huwei),120.2557,23.6741
537,C0K390,土庫 (Tuku),120.4420,23.7191
538,C0K400,斗六 (Douliu),120.3955,23.6790
539,C0K410,北港 (Beigang),120.5411,23.7205
540,C0K420,西螺 (Xiluo),120.2928,23.5739
541,C0K430,褒忠 (Baozhong),120.4673,23.8004
542,C0K440,二崙 (Erlun),120.3036,23.6909
543,C0K450,大埤 (Dapi),120.4089,23.7727
544,C0K460,斗南 (Dounan),120.4315,23.6460
545,C0K470,林內 (Linnei),120.4783,23.6787
546,C0K480,莿桐 (Citong),120.6096,23.7486
547,C0K500,元長 (Yuanchang),120.5023,23.7611
548,C0K510,水林 (Shuilin),120.3150,23.6498
549,C1K540,口湖 (Kouhu),120.2459,23.5729
550,C1K230,西螺 (Siluo) (撤銷站),120.1805,23.5853
551,C1K250,崙背 (Lunbei) (撤銷站),120.4525,23.8044
552,C1K260,後安寮 (Hou-anliao) (撤銷站),120.3189,23.7555
553,C1K270,褒忠 (Baojhong) (撤銷站),120.2332,23.7892
554,C1K310,斗六 (Douliou) (撤銷站),120.3081,23.7049
555,C1K320,阿丹 (Adan) (撤銷站),120.5163,23.7055
556,C1K340,土庫 (Tuku) (撤銷站),120.5118,23.6579
557,C1K350,北港 (Beigang) (撤銷站),120.3898,23.6880
558,C1K380,山豬湖 (Shanjhuhu) (撤銷站),120.2952,23.5689
559,C0K520,雲林東勢 (Dongshi Yunlin County) (撤銷站),120.6012,23.5867
560,C0K490,古坑 (Gukeng) (撤銷站),120.1547,23.6744
561,C0K300,大埔 (Dapu) (撤銷站),120.5597,23.6543
562,C0K290,宜梧 (Yiwu) (撤銷站),120.6052,23.6413
563,467480,嘉義 (CHIAYI),120.4329,23.4959
564,C0M730,嘉義市東區 (Dongqu Chiayi City),120.4329,23.4959
565,467530,阿里山 (ALISHAN),120.8132,23.5082
566,C0M410,馬頭山 (Matoushan),120.8132,23.5082
567,C0M520,東後寮 (Donghouliao),120.8132,23.5082
568,C0M530,奮起湖 (Fenqihu),120.2480,23.3699
569,C0M640,中埔 (Zhongpu),120.6992,23.4939
570,C0M650,朴子 (Puzi),120.5229,23.4253
571,C0M660,溪口 (Xikou),120.2390,23.4346
572,C0M670,大林 (Dalin),120.4035,23.6041
573,C0M680,太保 (Taibao),120.4584,23.6006
574,C0M690,水上 (Shuishang),120.3314,23.4550
575,C0M700,竹崎 (Zhuqi),120.3889,23.4197
576,C0M710,東石 (Dongshi),120.5555,23.5261
577,C0M720,番路 (Fanlu),120.1538,23.4589
578,C0M740,六腳 (Liujiao),120.5541,23.4646
579,C0M750,布袋 (Budai),120.2906,23.4928
580,C0M760,民雄 (Minxiong),120.1677,23.3808
581,C0M770,嘉義梅山 (Meishan Chiayi County),120.4284,23.5517
582,C0M780,鹿草 (Lucao),120.5555,23.5853
583,C0M790,新港 (Xingang),120.3083,23.4113
584,C0M800,茶山 (Chashan),120.3457,23.5532
585,C0M810,里佳 (Lijia),120.3457,23.5532
586,C0M820,達邦 (Dabang),120.6647,23.2990
587,C0M850,表湖 (Biaohu),120.7495,23.4539
588,C0M860,新美 (Shinmei),120.6416,23.2418
589,C1M480,獨立山 (Dulishan),120.6831,23.3380
590,C1M390,龍美 (Longmei),120.6077,23.5370
591,C1M400,菜瓜坪 (Caiguaping),120.6544,23.4067
592,C1M600,頭凍 (Toudong),120.6544,23.4067
593,C1M610,石磐龍 (Shipanlong),120.5761,23.2519
594,C1M620,瑞里 (Ruili),120.6635,23.4966
595,C1M640,十字 (Shizi),120.6751,23.5451
596,C1M870,國三N285K (Freeway No. 3 N285K),120.7536,23.4921
597,C1M630,豐山 (Fongshan) (撤銷站),120.5058,23.5503
598,C1M440,新高口 (Xingaokou) (撤銷站),120.7488,23.5950
599,C1M450,中坑 (Jhongkeng) (撤銷站),120.8789,23.4787
600,C1M460,溪口 (Shiko) (撤銷站),120.5255,23.5611
601,C1M470,鰲鼓 (Aogu) (撤銷站),120.4042,23.6040
602,C1M490,內埔 (Neipu) (撤銷站),120.1488,23.5052
603,C1M500,魚寮 (Yuliao) (撤銷站),120.5642,23.4854
604,C1M510,朴子 (Puzih) (撤銷站),120.3622,23.4782
605,C1M520,東後寮 (Donghouliao) (撤銷站),120.2577,23.4697
606,C1M540,小公田 (Siaogongtian) (撤銷站),120.2484,23.3697
607,C1M551,中埔 (Jhongpu) (撤銷站),120.5810,23.3617
608,C1M560,南靖 (Nanjing) (撤銷站),120.5237,23.4211
609,C1M570,大湖 (Dahu) (撤銷站),120.3841,23.4124
610,C0M830,山美 (Shanmei) (撤銷站),120.6202,23.4749
611,467590,恆春 (HENGCHUN),120.7463,22.0038
612,C0R100,尾寮山 (Weiliaoshan),120.7463,22.0038
613,C0R130,阿禮 (Ali),120.6838,22.8331
614,C0R140,瑪家 (Majia),120.7436,22.7429
615,C0R150,三地門 (Sandimen),120.6866,22.6829
616,C0R160,鹽埔 (yanpuxinwei),120.6399,22.7098
617,C0R170,屏東 (Pingdong),120.5307,22.7395
618,C0R190,赤山 (Chishan),120.4940,22.6602
619,C0R220,潮州 (Chaojhou),120.6143,22.5923
620,C0R240,來義 (Laiyi),120.5400,22.5343
621,C0R260,春日 (Chunri),120.6251,22.5273
622,C0R270,琉球嶼 (Liouciouyu),120.6283,22.3703
623,C0R280,檳榔 (Binlang),120.3622,22.3322
624,C0R320,車城 (Checheng),120.8367,22.0760
625,C0R341,牡丹 (Mudan),120.7162,22.0744
626,C0R350,貓鼻頭 (Maobitou),120.7926,22.1300
627,C0R540,佳冬 (Jiadong),120.7358,21.9217
628,C0R550,新埤 (Xinpi),120.5523,22.4194
629,C0R560,新園 (Xinyuan),120.5828,22.4679
630,C0R570,麟洛 (Linluo),120.4615,22.5434
631,C0R580,南州 (Nanzhou),120.5271,22.6507
632,C0R590,里港 (Ligang),120.5027,22.4859
633,C0R600,舊泰武 (Jiutaiwu),120.4945,22.7791
634,C0R620,墾雷 (Kenlei),120.6649,22.5881
635,C0R640,東港 (Donggang),120.8552,21.9008
636,C0R650,竹田 (Zhutian),120.4407,22.4624
637,C0R660,枋寮 (Fangliao),120.5434,22.5848
638,C0R670,楓港 (Fenggang),120.5906,22.3677
639,C0R680,佳樂水 (Jialeshui),120.6921,22.1901
640,C0R690,墾丁 (Kenting),120.8616,21.9935
641,C0R700,枋山 (Fangshan),120.8102,21.9667
642,C0R710,龍磐 (Longpan),120.6610,22.2468
643,C0R720,旭海 (Xuhai),120.8389,21.9316
644,C0R730,大坪頂 (Dapingding),120.8876,22.2054
645,C0R740,獅子 (Shizi),120.6935,22.0246
646,C0R750,四林格山 (Silingeshan),120.7052,22.2015
647,C0R760,南仁湖 (Nanrenhu),120.7944,22.0787
648,C0R770,保力 (Baoli),120.8633,22.0846
649,C0R780,滿州 (Manzhou),120.7641,22.0711
650,C0R790,九棚 (Jiupeng),120.8398,22.0244
651,C0R800,丹路 (Danlu),120.8892,22.1419
652,C0R810,內獅 (Neishi),120.7509,22.2044
653,C0R820,白鷺 (Bailu),120.6429,22.3050
654,C0R830,高士 (Gaoshi),120.6662,22.4542
655,C0R840,牡丹池山 (Mudanchisahn),120.8367,22.1218
656,C0R440,大漢山 (Dahanshan),120.8412,22.1683
657,C0R470,高樹 (Gaoshu),120.7531,22.4052
658,C0R480,長治 (Changzhi),120.6008,22.8263
659,C0R490,九如 (Jiuru),120.5426,22.6931
660,C0R510,萬丹 (WanDan),120.4905,22.7405
661,C0R520,崁頂 (Kanding),120.4903,22.5877
662,C1R110,口社 (Gusia),120.5069,22.5147
663,C1R120,上德文 (Shangdewun),120.6452,22.7701
664,C1R290,石門山 (Shihmenshan),120.7044,22.7632
665,C1R610,西大武山 (Xidawushan),120.7565,22.1126
666,C1R630,龍泉 (Longquan),120.7322,22.6177
667,C1R250,力里 (Lili),120.5909,22.6670
668,C1R260,春日 (Chunrih) (撤銷站),120.6292,22.4281
669,C1R300,旭海 (Syuhai) (撤銷站),120.6283,22.3703
670,C1R310,壽卡 (Shouka) (撤銷站),120.8876,22.1946
671,C1R320,車城 (Checheng) (撤銷站),120.8589,22.2389
672,C1R330,枋山 (Fangshan) (撤銷站),120.7162,22.0744
673,C1R340,牡丹 (Mudan) (撤銷站),120.6610,22.2468
674,C1R440,大漢山 (Da-Han_Shan) (撤銷站),120.7926,22.1300
675,C1R130,阿禮 (Ali) (撤銷站),120.7531,22.4052
676,C1R140,瑪家 (Majia) (撤銷站),120.7436,22.7426
677,C1R160,新圍 (Xinwei) (撤銷站),120.6869,22.6829
678,C1R170,屏東 (Pingtung) (撤銷站),120.5307,22.7395
679,C1R190,赤山 (Chihshan) (撤銷站),120.4940,22.6602
680,C1R200,龍泉 (Longquan) (撤銷站),120.6163,22.5910
681,C1R201,龍泉 (Longquan) (撤銷站),120.6022,22.6671
682,C1R210,麟洛 (Linluo) (撤銷站),120.6020,22.6670
683,C1R230,南州 (Nanjhou) (撤銷站),120.5517,22.6573
684,C1R240,來義 (Laiyi) (撤銷站),120.5164,22.4926
685,C1R090,里港 (Ligang) (撤銷站),120.6251,22.5273
686,C0R530,林邊 (Linbian) (撤銷站),120.4966,22.8002
687,C0R500,竹田 (Zhutian) (撤銷站),120.5099,22.4308
688,C0R360,墾丁 (Kenting) (撤銷站),120.5440,22.5849
689,C0R370,佳樂水 (Jialeshuei) (撤銷站),120.8022,21.9456
690,C0R380,枋寮 (Fangliao) (撤銷站),120.8445,21.9919
691,C0R400,楓港 (Fongkung) (撤銷站),120.5896,22.3694
692,C0R420,牡丹池山 (Mudanchihshan) (撤銷站),120.6927,22.1901
693,C0R430,東港 (Donggang) (撤銷站),120.8405,22.1677
694,467060,蘇澳 (SU-AO),121.8573,24.5967
695,467080,宜蘭 (YILAN),121.8573,24.5967
696,C0U750,龜山島 (Gueishandao),121.7565,24.7639
697,C0U760,東澳 (Dong-ao),121.9531,24.8416
698,C0U770,南澳 (Nanao),121.8331,24.5219
699,C0U780,五結 (Wujie),121.8102,24.4493
700,C0U860,頭城 (Toucheng),121.7979,24.6863
701,C0U870,大礁溪 (Dajiaoxi),121.8308,24.8532
702,C0U880,北關 (Beiguan),121.6750,24.7910
703,C0U890,三星 (Sanxing),121.8734,24.9072
704,C0U900,內城 (Neicheng),121.6530,24.6681
705,C0U910,冬山 (Dongshan),121.6876,24.7181
706,C0U940,羅東 (Luodong),121.7937,24.6337
707,C0U950,鶯子嶺 (Yingziling),121.7493,24.6818
708,C0U960,翠峰湖 (Cuifenghu),121.7924,24.8975
709,C0U970,大福 (Dafu),121.6080,24.5108
710,C0U980,坪林石牌 (Shipai Pinglin),121.8138,24.8006
711,C0U990,員山 (Yuanshan),121.7739,24.8647
712,C0UA00,土場 (Tuchang),121.7224,24.7443
713,C0UA10,鴛鴦湖 (Yuanyanghu),121.4953,24.5765
714,C0UA20,多加屯 (Duojiatun),121.4122,24.5902
715,C0UA30,白嶺 (Bailing),121.3731,24.3686
716,C0UA40,西德山 (Xideshan),121.5190,24.5278
717,C0UA50,西帽山 (Ximaoshan),121.7526,24.5606
718,C0UA60,樟樹山 (Zhangshushan),121.8026,24.5553
719,C0UA70,桃源谷 (Taoyuangu),121.7832,24.4139
720,C0UA80,大溪漁港 (DASI FISHING),121.8888,24.9626
721,C0UA90,石城 (SHIHCHENG),121.9029,24.9418
722,C0UB00,淡江大學蘭陽校園 (TAMKANG LANYANG CAMPUS),121.9512,24.9804
723,C0U520,雙連埤 (Shuanglianpi),121.7303,24.8232
724,C0U600,礁溪 (Chiaoshi),121.6413,24.7530
725,C0U650,玉蘭 (Yulan),121.7656,24.8175
726,C0U710,太平山 (Taipingshan),121.5870,24.6752
727,C0U720,南山 (Nanshan),121.5256,24.5054
728,C1U501,牛鬥 (Nioudou),121.3816,24.4374
729,C1U670,寒溪 (Hanxi),121.5736,24.6378
730,C1U690,新寮 (Xinliao),121.7169,24.6340
731,C1U840,東澳嶺 (Dongaoling),121.7512,24.6255
732,C1U850,觀音海岸 (Guanyin Coast),121.8485,24.5378
733,C1U920,思源 (Siyuan),121.7785,24.3831
734,C1U930,粉鳥林 (FENNIAOLIN),121.3472,24.3931
735,C1U860,頭城 (Toucheng) (撤銷站),121.8424,24.4970
736,C1U880,北關 (Beiguan) (撤銷站),121.8307,24.8532
737,C1U720,南山 (Nanshan) (撤銷站),121.8718,24.9065
738,C1U830,烏石鼻 (Wushibi) (撤銷站),121.3816,24.4374
739,C1U680,冬山 (Dongshan) (撤銷站),121.8393,24.4826
740,C1U521,雙連埤 (Shuanglianpi) (撤銷站),121.7934,24.6323
741,C1U580,北關 (Beiguan) (撤銷站),121.6412,24.7529
742,C1U590,頭城 (Toucheng) (撤銷站),121.8734,24.9072
743,C1U610,大礁溪 (Dajiaosi) (撤銷站),121.8146,24.8519
744,C1U620,壯圍 (Jhuangwei) (撤銷站),121.6783,24.7859
745,C1U630,再連 (Zailian) (撤銷站),121.7895,24.7437
746,C1U660,三星 (Sansing) (撤銷站),121.6794,24.7150
747,C0U730,思源 (Siyuan) (撤銷站),121.6544,24.6706
748,C0U680,冬山 (Dongshan) (撤銷站),121.3566,24.3972
749,C0U640,羅東 (Luodong) (撤銷站),121.7935,24.6324
750,466990,花蓮 (HUALIEN),121.6132,23.9751
751,C0T790,大禹嶺 (Dayuling),121.6132,23.9751
752,C0T820,天祥 (Tianxiang),121.3160,24.1861
753,C0T9D0,和中 (Hezhong),121.4956,24.1795
754,C0T9E0,大坑 (Dakeng),121.7410,24.2667
755,C0T9F0,水璉 (Shuilian),121.5819,23.8806
756,C0T9G0,鳳林山 (Fenglinshan),121.5425,23.7971
757,C0T9H0,加路蘭山 (Jialulanshan),121.4201,23.7352
758,C0T9I0,豐濱 (Fengbin),121.5274,23.6829
759,C0T9M0,靜浦 (Jingpu),121.5148,23.5838
760,C0T9N0,富里 (Fuli),121.4950,23.4551
761,C0Z020,明里 (Mingli),121.2493,23.1716
762,C0Z050,佳心 (Jiaxin),121.2623,23.2087
763,C0Z061,玉里 (Yuli),121.2131,23.3456
764,C0Z070,舞鶴 (Wuhe),121.3396,23.3215
765,C0Z080,富源 (Fuyuan),121.3740,23.4681
766,C0Z100,東華 (Donghwa),121.3782,23.5876
767,C0Z150,吉安光華 (Guanghua Ji-an),121.5498,23.8952
768,C0Z160,鳳林 (Fenglin),121.5951,23.9309
769,C0Z170,卓溪 (Zhuoxi),121.4534,23.7461
770,C0Z180,新城 (Xincheng),121.3033,23.3442
771,C0Z190,富世 (Fushi),121.6045,24.0394
772,C0Z200,萬榮 (Wanrong),121.6297,24.1474
773,C0Z210,瑞穗 (Ruisui),121.4201,23.7092
774,C0Z220,和平林道 (Hepinglindao),121.3902,23.5239
775,C0Z230,和平 (Heping),121.6563,24.3439
776,C0Z250,瑞穗林道 (Ruisuilindao),121.7700,24.3071
777,C0Z270,蕃薯寮 (Fanshuliao),121.3068,23.4928
778,C0Z280,德武 (Dewu),121.5401,23.7383
779,C0Z290,赤柯山 (Chikeshan),121.4107,23.4742
780,C0Z300,東里 (Dongli),121.3829,23.3689
781,C0Z310,清水斷崖 (Qingshui Cliff),121.3054,23.2685
782,C0Z320,清水林道 (Qingshuilindao),121.6891,24.2182
783,C0Z330,安通山 (Antongshan),121.1882,23.2712
784,C0T870,鯉魚潭 (Liyutan),121.3485,23.2907
785,C0T900,西林 (Xilin),121.5089,23.9356
786,C0T960,光復 (Guangfu),121.4414,23.8119
787,C0T9A0,月眉山 (Yuemeishan),121.4249,23.6606
788,C0T9B0,水源 (Shuiyuan),121.5398,23.8099
789,C1S850,豐南 (Funan),121.5371,23.9918
790,C1T800,洛韶 (Luoshao),121.2623,23.1221
791,C1T810,慈恩 (Ci-en),121.4539,24.2045
792,C1T830,布洛灣 (Buluowan),121.3883,24.1920
793,C1T920,中興 (Zhongxing),121.5712,24.1718
794,C1T940,大觀 (Daguan),121.4986,23.7695
795,C1T950,太安 (Tai-an),121.3731,23.7142
796,C1T970,大農 (Danong),121.3701,23.6667
797,C1T980,龍澗 (Longjian),121.4133,23.6152
798,C1T990,高寮 (Gaoliao),121.4113,24.0232
799,C1TA00,太魯閣 (Taroko),121.3568,23.3942
800,C1Z030,紅葉 (Hongye),121.6236,24.1577
801,C1Z040,立山 (Lishan),121.3388,23.4931
802,C1Z110,三棧 (Sanzhan),121.3273,23.4433
803,C1Z120,壽豐 (Shoufeng),121.6050,24.1155
804,C1Z130,銅門 (Tongmen),121.5080,23.8708
805,C1Z140,荖溪 (Laoxi),121.4928,23.9656
806,C1Z240,中平林道 (Zhongpinglindao),121.4596,23.8905
807,C1Z090,三棧 (San-Zhan) (撤銷站),121.2676,23.4211
808,C1Z010,卓樂 (Jhuole) (撤銷站),121.6051,24.1169
809,C1Z020,明里 (Mingli) (撤銷站),121.2716,23.2970
810,C1T930,鳳林 (Fonglin) (撤銷站),121.2622,23.2087
811,C1T850,吉安 (Ji-an) (撤銷站),121.4456,23.7436
812,C1T860,銅門 (Tongmen) (撤銷站),121.5627,23.9733
813,C1T880,吳全城 (Wucyuancheng) (撤銷站),121.4926,23.9660
814,C1T890,壽豐 (Shoufeng) (撤銷站),121.5479,23.8869
815,C1T900,西林 (Xilin) (撤銷站),121.5078,23.8690
816,C1T910,東壙 (Dongkuang) (撤銷站),121.4178,23.8068
817,C0T9C0,富世 (Fushih) (撤銷站),121.4047,23.8535
818,C0T841,新城 (Sincheng) (撤銷站),121.6296,24.1481
819,467540,大武 (DAWU),120.9037,22.3556
820,467610,成功 (CHENGGONG),120.9037,22.3556
821,467620,蘭嶼 (LANYU),121.3734,23.0974
822,467660,臺東 (TAITUNG),121.5583,22.0369
823,C0S660,下馬 (Xiama),121.1545,22.7522
824,C0S690,太麻里 (Taimali),121.0703,23.1504
825,C0S700,知本 (Jhihben),120.9853,22.6090
826,C0S710,鹿野 (Luye),121.0056,22.6848
827,C0S730,綠島 (Ludao),121.1229,22.9177
828,C0S740,池上 (Chihshang),121.4753,22.6672
829,C0S750,向陽 (Siangyang),121.2094,23.1196
830,C0S760,紅石 (Hongshih),120.9861,23.2483
831,C0S770,大溪山 (Dasishan),121.1262,23.0691
832,C0S790,金崙 (Jinlun),120.9433,22.4784
833,C0S810,東河 (Donghe),120.9668,22.5381
834,C0S830,長濱 (Changbin),121.3039,22.9726
835,C0S840,南田 (Nantian),121.4119,23.2868
836,C0S890,關山 (Guanshan),120.8892,22.2797
837,C0S900,蘭嶼高中 (Lanyu High School),121.1750,23.0395
838,C0S910,蘭嶼燈塔 (Lanyu Lighthouse),121.5121,22.0490
839,C0S920,金峰嘉蘭 (Jialan Jinfeng),121.5031,22.0811
840,C0S930,延平 (Yanping),120.9608,22.5947
841,C0S940,石寧山 (Shiningshan),121.0840,22.9025
842,C0S950,七塊厝 (Qikuaicuo),121.4066,23.2237
843,C0S960,香蘭 (Xianglan),121.2299,22.9544
844,C0S970,加津林 (Jiajinlin),120.9933,22.5875
845,C0S980,勝林山 (Shenglinshan),120.9269,22.4162
846,C0S990,山豬窟 (Shanzhuku),120.8938,22.4304
847,C0SA00,歷坵 (Liqiu),120.8573,22.3186
848,C0SA10,檳榔四格山 (Binlangsigeshan),120.8918,22.5209
849,C0SA20,金崙山 (Jinlunshan),121.1093,22.8100
850,C0SA30,都歷 (Duli),120.9596,22.5674
851,C0SA40,瑞和 (Ruihe),121.3236,23.0203
852,C0SA60,知本（水試所） (Zhiben (FRI)),121.1566,22.9743
853,C0SA80,土坂 (Tuban),121.1566,22.9743
854,C0SA90,達仁林場 (Darenlinchang),120.8875,22.4531
855,C1S670,摩天 (Motian),120.8239,22.2643
856,C1S800,華源 (Huayuan),121.0270,23.1995
857,C1S820,金峰 (Jinfeng),121.0232,22.6578
858,C1S860,利嘉 (LiChai),120.9332,22.5909
859,C1S870,南美山 (NanMaiSan),121.0505,22.8094
860,C1S880,壽卡 (Shouka),121.3823,23.1502
861,C1SA50,利嘉林道 (Lijialindao),120.8589,22.2389
862,C1SA70,都蘭 (Dulan),121.0093,22.8232
863,C1S620,土阪 (Tuban) (撤銷站),121.2268,22.8779
864,C1S630,都蘭 (Dulian) (撤銷站),120.8875,22.4531
865,C1S660,下馬 (Siama) (撤銷站),121.2279,22.8783
866,C0S680,紅葉山 (Hongyeshan) (撤銷站),121.0700,23.1501
867,467300,東吉島 (DONGJIDAO),119.6674,23.2569
868,467350,澎湖 (PENGHU),119.6674,23.2569
869,C0W120,西嶼 (Xiyu),119.5630,23.5655
870,C0W130,花嶼 (Huayu),119.4684,23.5626
871,467110,金門 (KINMEN),118.2892,24.4073
872,C0W140,金沙 (Jinsha),118.2892,24.4073
873,C0W150,金寧 (Jinning),118.4087,24.4882
874,C0W160,烏坵 (Wuqiu),118.3289,24.4577
875,467990,馬祖 (MATSU),119.9234,26.1692
876,C0W110,東莒 (Dongju),119.9234,26.1692
877,C0W170,東引 (Dongyin) (撤銷站),119.9806,25.9652
